"","station","Lat","Lon"
"1","hurn",50.779,-1.835
"2","yeovilton",51.006,-2.641
"3","eastbourne",50.762,0.285
"4","southampton",50.898,-1.408
"5","camborne",50.218,-5.327
"6","heathrow",51.479,-0.449
"7","chivenor",51.089,-4.147
"8","oxford",51.761,-1.262
"9","eastbourne",50.762,0.285
"10","braemar",57.006,-3.396
